index,Unnamed: 0,NumeroZona,NomeZona,NumeroMuni,NomeMunici,NumDistrit,NomeDistri,Area_ha_2,geometry,lat,lon
0,0,1,Sé,36,São Paulo,80,Sé,57.1,POINT (-46.63366680608578 -23.54877270632105),-23.54877270632105,-46.633666806085785
1,1,2,Parque Dom Pedro,36,São Paulo,80,Sé,113.64,POINT (-46.62950424993775 -23.54406323903391),-23.54406323903391,-46.62950424993775
2,2,3,Praça João Mendes,36,São Paulo,80,Sé,47.75,POINT (-46.632338168263 -23.5540157883862),-23.5540157883862,-46.632338168263
3,3,4,Ladeira da Memória,36,São Paulo,67,República,75.11,POINT (-46.64152812213496 -23.5514537653042),-23.5514537653042,-46.641528122134964
4,4,5,República,36,São Paulo,67,República,74.95,POINT (-46.64269127088459 -23.54432709057121),-23.544327090571212,-46.64269127088459
5,5,6,Santa Ifigênia,36,São Paulo,67,República,82.93,POINT (-46.63835789755272 -23.53899672605772),-23.53899672605772,-46.638357897552716
6,6,7,Luz,36,São Paulo,9,Bom Retiro,154.6,POINT (-46.63435378061725 -23.5312742368102),-23.5312742368102,-46.634353780617246
7,7,8,Bom Retiro,36,São Paulo,9,Bom Retiro,143.01,POINT (-46.64453190934671 -23.52186416200071),-23.521864162000714,-46.64453190934671
8,8,9,Ponte Pequena,36,São Paulo,9,Bom Retiro,129.78,POINT (-46.63047952884423 -23.52399591239259),-23.52399591239259,-46.630479528844226
9,9,10,Canindé,36,São Paulo,57,Pari,82.61,POINT (-46.62104013150289 -23.52314851560299),-23.52314851560299,-46.621040131502895
10,10,11,Bom Jardim,36,São Paulo,57,Pari,49.85,POINT (-46.61078269173937 -23.52476570049535),-23.52476570049535,-46.61078269173937
11,11,12,Pari,36,São Paulo,57,Pari,140.16,POINT (-46.61716293061853 -23.53026998479985),-23.53026998479985,-46.61716293061853
12,12,13,João Teodoro,36,São Paulo,10,Brás,39.32,POINT (-46.62127737486644 -23.53739633583075),-23.537396335830746,-46.62127737486644
13,13,14,Oriente,36,São Paulo,10,Brás,69.88,POINT (-46.61382628096656 -23.53801618939185),-23.53801618939185,-46.613826280966556
14,14,15,Bresser,36,São Paulo,10,Brás,76.98,POINT (-46.61098832032493 -23.54380422927701),-23.54380422927701,-46.61098832032493
15,15,16,Brás,36,São Paulo,10,Brás,109.08,POINT (-46.61857302192611 -23.54992606748357),-23.549926067483568,-46.61857302192611
16,16,17,Gasômetro,36,São Paulo,10,Brás,69.35,POINT (-46.62328832242004 -23.54250111474139),-23.54250111474139,-46.62328832242004
17,17,18,Independência,36,São Paulo,14,Cambuci,253.75,POINT (-46.61512101984746 -23.56042944094143),-23.56042944094143,-46.61512101984746
18,18,19,Cambuci,36,São Paulo,14,Cambuci,140.43,POINT (-46.61942866488742 -23.57113794125981),-23.57113794125981,-46.619428664887415
19,19,20,Glicério,36,São Paulo,49,Liberdade,108.02,POINT (-46.62692861972257 -23.56394717198638),-23.563947171986385,-46.62692861972257
20,20,21,Aclimação,36,São Paulo,49,Liberdade,113.62,POINT (-46.63041172477328 -23.5728747087657),-23.572874708765703,-46.63041172477328
21,21,22,Pires da Mota,36,São Paulo,49,Liberdade,50.03,POINT (-46.63514344986554 -23.56751368249925),-23.567513682499246,-46.63514344986554
22,22,23,Centro Cultural,36,São Paulo,49,Liberdade,33.24,POINT (-46.63877655254387 -23.56730311388357),-23.567303113883572,-46.63877655254387
23,23,24,Liberdade,36,São Paulo,49,Liberdade,59.49,POINT (-46.63502927173764 -23.55971145863747),-23.559711458637466,-46.63502927173764
24,24,25,Treze de Maio,36,São Paulo,7,Bela Vista,42.85,POINT (-46.64793314751026 -23.55508656060799),-23.555086560607986,-46.64793314751026
25,25,26,Bexiga,36,São Paulo,7,Bela Vista,51.76,POINT (-46.64192461901244 -23.55820919385787),-23.55820919385787,-46.64192461901244
26,26,27,Bela Vista,36,São Paulo,7,Bela Vista,93.8,POINT (-46.64440855782503 -23.56548030365989),-23.565480303659893,-46.64440855782503
27,27,28,São Carlos do Pinhal,36,São Paulo,7,Bela Vista,31.03,POINT (-46.65020391150195 -23.56286577861535),-23.56286577861535,-46.650203911501954
28,28,29,Masp,36,São Paulo,7,Bela Vista,57.27,POINT (-46.65383723148874 -23.55827919897125),-23.55827919897125,-46.653837231488744
29,29,30,Higienópolis,36,São Paulo,26,Consolação,67.81,POINT (-46.656141582777 -23.54525797281215),-23.54525797281215,-46.656141582777
30,30,31,Vila Buarque,36,São Paulo,26,Consolação,89.58,POINT (-46.65155514406312 -23.54863576617937),-23.54863576617937,-46.65155514406312
31,31,32,Consolação,36,São Paulo,26,Consolação,57.23,POINT (-46.66005010912124 -23.55447597420116),-23.55447597420116,-46.660050109121244
32,32,33,Pacaembu,36,São Paulo,26,Consolação,90.45,POINT (-46.66847398408605 -23.55060971121055),-23.55060971121055,-46.66847398408605
33,33,34,FAAP,36,São Paulo,26,Consolação,74.45,POINT (-46.66247800887361 -23.54430945428139),-23.544309454281386,-46.662478008873606
34,34,35,Santa Cecília,36,São Paulo,70,Santa Cecília,144.09,POINT (-46.64770358023537 -23.53538365798341),-23.535383657983413,-46.647703580235365
35,35,36,Marechal Deodoro,36,São Paulo,70,Santa Cecília,142.2,POINT (-46.65642119966119 -23.53295448027482),-23.53295448027482,-46.65642119966119
36,36,37,Rudge,36,São Paulo,70,Santa Cecília,84.73,POINT (-46.65416695241702 -23.52372436888297),-23.52372436888297,-46.65416695241702
37,37,38,Catumbi,36,São Paulo,8,Belém,81.44,POINT (-46.60374307289203 -23.52857848143763),-23.528578481437634,-46.60374307289203
38,38,39,Belém,36,São Paulo,8,Belém,160.71,POINT (-46.5927924280908 -23.53257787931025),-23.53257787931025,-46.5927924280908
39,39,40,Quarta Parada,36,São Paulo,8,Belém,127.4,POINT (-46.5849742896901 -23.54656893781577),-23.546568937815767,-46.5849742896901
40,40,41,Belenzinho,36,São Paulo,8,Belém,180.11,POINT (-46.59449505474887 -23.54039335994764),-23.54039335994764,-46.59449505474887
41,41,42,Celso Garcia,36,São Paulo,8,Belém,63.89,POINT (-46.60570092905122 -23.53544448965737),-23.535444489657372,-46.60570092905122
42,42,43,Mooca,36,São Paulo,54,Mooca,271.79,POINT (-46.59740747481478 -23.55082673049437),-23.55082673049437,-46.59740747481478
43,43,44,Alto da Mooca,36,São Paulo,54,Mooca,141.65,POINT (-46.58975529595933 -23.56545038578419),-23.565450385784192,-46.58975529595933
44,44,45,Parque da Mooca,36,São Paulo,54,Mooca,381.42,POINT (-46.59752361117296 -23.567241053208),-23.567241053207997,-46.59752361117296
45,45,46,Água Rasa,36,São Paulo,1,Água Rasa,315.81,POINT (-46.56474128266083 -23.57267181574093),-23.572671815740925,-46.564741282660826
46,46,47,Vila Bertioga,36,São Paulo,1,Água Rasa,195.28,POINT (-46.57843743262292 -23.5667762072316),-23.5667762072316,-46.57843743262292
47,47,48,Regente Feijó,36,São Paulo,1,Água Rasa,203.96,POINT (-46.57569550824078 -23.5576912609542),-23.557691260954197,-46.575695508240784
48,48,49,Ana Rosa,36,São Paulo,92,Vila Mariana,94.46,POINT (-46.63436997231462 -23.57883882776727),-23.578838827767267,-46.634369972314616
49,49,50,Jardim da Glória,36,São Paulo,92,Vila Mariana,88.43,POINT (-46.62099248594858 -23.58237464743019),-23.582374647430193,-46.620992485948584
50,50,51,Chácara Klabin,36,São Paulo,92,Vila Mariana,97.57,POINT (-46.62553481840155 -23.58999951342273),-23.589999513422732,-46.62553481840155
51,51,52,Vila Mariana,36,São Paulo,92,Vila Mariana,59.61,POINT (-46.6315188679638 -23.58558352657831),-23.585583526578308,-46.6315188679638
52,52,53,Santa Cruz,36,São Paulo,92,Vila Mariana,108.52,POINT (-46.63004979838846 -23.59592327197161),-23.59592327197161,-46.63004979838846
53,53,54,Vila Clementino,36,São Paulo,92,Vila Mariana,93.7,POINT (-46.64322589294111 -23.59641138099968),-23.59641138099968,-46.64322589294111
54,54,55,França Pinto,36,São Paulo,92,Vila Mariana,112.14,POINT (-46.64132318378529 -23.58974955555312),-23.589749555553123,-46.64132318378529
55,55,56,Rodrigues Alves,36,São Paulo,92,Vila Mariana,103.55,POINT (-46.64330340927866 -23.58223874101416),-23.582238741014162,-46.64330340927866
56,56,57,Paraíso,36,São Paulo,92,Vila Mariana,96.28,POINT (-46.64726553363551 -23.57408129453783),-23.57408129453783,-46.64726553363551
57,57,58,Bosque da Saúde,36,São Paulo,79,Saúde,169.91,POINT (-46.63168383022835 -23.60629625871315),-23.60629625871315,-46.631683830228354
58,58,59,Saúde,36,São Paulo,79,Saúde,260.81,POINT (-46.63517513582157 -23.62105734739173),-23.62105734739173,-46.63517513582157
59,59,60,Planalto Paulista,36,São Paulo,79,Saúde,321.66,POINT (-46.64955799517517 -23.61811908144459),-23.618119081444586,-46.64955799517517
60,60,61,Mirandópolis,36,São Paulo,79,Saúde,173.45,POINT (-46.64281357487962 -23.60536679656092),-23.605366796560922,-46.64281357487962
61,61,62,Parque Ibirapuera,36,São Paulo,53,Moema,283.7,POINT (-46.65615969843491 -23.58450478751766),-23.584504787517663,-46.656159698434905
62,62,63,Jardim Luzitânia,36,São Paulo,53,Moema,103.07,POINT (-46.65577609576648 -23.59623229962216),-23.59623229962216,-46.65577609576648
63,63,64,Moema,36,São Paulo,53,Moema,175.13,POINT (-46.65883680535961 -23.60567309813458),-23.60567309813458,-46.65883680535961
64,64,65,Vila Helena,36,São Paulo,53,Moema,104.82,POINT (-46.66825199590866 -23.59968110865503),-23.599681108655034,-46.66825199590866
65,65,66,Bandeirantes,36,São Paulo,53,Moema,133.42,POINT (-46.66824895045265 -23.61026569077188),-23.610265690771875,-46.66824895045265
66,66,67,Vila Nova Conceição,36,São Paulo,53,Moema,112.48,POINT (-46.66761343293476 -23.58896497802593),-23.588964978025928,-46.66761343293476
67,67,68,Chácara Itaim,36,São Paulo,34,Itaim Bibi,204.01,POINT (-46.68001414040712 -23.58494224480042),-23.584942244800423,-46.68001414040712
68,68,69,Vila Olímpia,36,São Paulo,34,Itaim Bibi,89.63,POINT (-46.67686648419709 -23.59200486204801),-23.59200486204801,-46.67686648419709
69,69,70,Hélio Pelegrino,36,São Paulo,34,Itaim Bibi,103.38,POINT (-46.67873558379944 -23.60020569417721),-23.600205694177212,-46.67873558379944
70,70,71,Brooklin,36,São Paulo,34,Itaim Bibi,234.25,POINT (-46.68481578476369 -23.60899816721463),-23.608998167214626,-46.684815784763686
71,71,72,Vila Cordeiro,36,São Paulo,34,Itaim Bibi,176.69,POINT (-46.69197114922675 -23.61940141061391),-23.619401410613907,-46.691971149226745
72,72,73,Berrini,36,São Paulo,34,Itaim Bibi,197.39,POINT (-46.69191257233786 -23.60118290956779),-23.601182909567786,-46.69191257233786
73,73,74,Campinas,36,São Paulo,44,Jardim Paulista,49.08,POINT (-46.65387162384421 -23.56641242505235),-23.566412425052352,-46.65387162384421
74,74,75,Pamplona,36,São Paulo,44,Jardim Paulista,51.34,POINT (-46.65740161882662 -23.57000188148023),-23.570001881480227,-46.65740161882662
75,75,76,Jardins,36,São Paulo,44,Jardim Paulista,237.7,POINT (-46.66776463307538 -23.57287771789081),-23.57287771789081,-46.66776463307538
76,76,77,Clínicas,36,São Paulo,44,Jardim Paulista,128.72,POINT (-46.67506569956685 -23.55727343622584),-23.557273436225838,-46.67506569956685
77,77,78,Oscar Freire,36,São Paulo,44,Jardim Paulista,100.01,POINT (-46.6664477143691 -23.56390429261935),-23.563904292619352,-46.6664477143691
78,78,79,Trianon,36,São Paulo,44,Jardim Paulista,59.81,POINT (-46.66145170680025 -23.56021185850087),-23.56021185850087,-46.66145170680025
79,79,80,Jardim Paulistano,36,São Paulo,63,Pinheiros,98.98,POINT (-46.6851348752902 -23.56344238628397),-23.56344238628397,-46.6851348752902
80,80,81,Jardim Europa,36,São Paulo,63,Pinheiros,308.02,POINT (-46.68411227710715 -23.57547112302204),-23.575471123022037,-46.68411227710715
81,81,82,Pinheiros,36,São Paulo,63,Pinheiros,202.58,POINT (-46.69634169814336 -23.56712486114036),-23.56712486114036,-46.69634169814336
82,82,83,Vila Madalena,36,São Paulo,63,Pinheiros,219.31,POINT (-46.68856496706087 -23.55401637411411),-23.554016374114113,-46.68856496706087
83,83,84,PUC,36,São Paulo,61,Perdizes,73.32,POINT (-46.67116057783003 -23.5361080689064),-23.536108068906398,-46.67116057783003
84,84,85,Cardoso de Almeida,36,São Paulo,61,Perdizes,63.39,POINT (-46.66722554622624 -23.54077844000681),-23.54077844000681,-46.66722554622624
85,85,86,Zequinha de Abreu,36,São Paulo,61,Perdizes,49.61,POINT (-46.67418613950915 -23.54553829418236),-23.545538294182357,-46.674186139509146
86,86,87,Sumaré,36,São Paulo,61,Perdizes,139.16,POINT (-46.68385889373289 -23.54425358809464),-23.544253588094644,-46.68385889373289
87,87,88,Perdizes,36,São Paulo,61,Perdizes,168.45,POINT (-46.68067986135632 -23.53520008022483),-23.535200080224826,-46.680679861356325
88,88,89,Vila Anglo Brasileira,36,São Paulo,61,Perdizes,79.12,POINT (-46.69332868803129 -23.53873766947375),-23.538737669473747,-46.69332868803129
89,89,90,Pompéia,36,São Paulo,61,Perdizes,60.0,POINT (-46.68711905176912 -23.52989313189888),-23.52989313189888,-46.687119051769116
90,90,91,Santa Marina,36,São Paulo,6,Barra Funda,295.36,POINT (-46.67987385873531 -23.51715816142739),-23.517158161427393,-46.67987385873531
91,91,92,Barra Funda,36,São Paulo,6,Barra Funda,118.21,POINT (-46.66260728371956 -23.52044256047807),-23.520442560478067,-46.66260728371956
92,92,93,Francisco Matarazzo,36,São Paulo,6,Barra Funda,105.13,POINT (-46.66613463546292 -23.52965230405246),-23.529652304052462,-46.666134635462925
93,93,94,Água Branca,36,São Paulo,6,Barra Funda,71.11,POINT (-46.67747834636447 -23.52642813043382),-23.52642813043382,-46.67747834636447
94,94,95,Vila Beatriz,36,São Paulo,2,Alto de Pinheiros,183.66,POINT (-46.70019790192483 -23.54725690284166),-23.54725690284166,-46.70019790192483
95,95,96,Alto de Pinheiros,36,São Paulo,2,Alto de Pinheiros,253.17,POINT (-46.70877297121415 -23.55251652466033),-23.552516524660334,-46.70877297121415
96,96,97,Boaçava,36,São Paulo,2,Alto de Pinheiros,314.44,POINT (-46.72063874537331 -23.54356625722415),-23.54356625722415,-46.720638745373314
97,97,98,Vila Anastácio,36,São Paulo,48,Lapa,164.66,POINT (-46.71664014252496 -23.51477572623617),-23.51477572623617,-46.71664014252496
98,98,99,Lapa de Baixo,36,São Paulo,48,Lapa,242.69,POINT (-46.70002484492282 -23.51394036105744),-23.513940361057443,-46.70002484492282
99,99,100,Lapa,36,São Paulo,48,Lapa,225.22,POINT (-46.69945105976384 -23.52355650076329),-23.523556500763288,-46.69945105976384
100,100,101,Vila Ipojuca,36,São Paulo,48,Lapa,168.47,POINT (-46.69982116214197 -23.533466267786),-23.533466267786004,-46.69982116214197
101,101,102,Alto da Lapa,36,São Paulo,48,Lapa,159.95,POINT (-46.71281213734098 -23.53053161293498),-23.53053161293498,-46.712812137340975
102,102,103,Gavião Peixoto,36,São Paulo,48,Lapa,68.96,POINT (-46.71711514813639 -23.52203838808568),-23.52203838808568,-46.717115148136386
103,103,104,Bela Aliança,36,São Paulo,90,Vila Leopoldina,71.35,POINT (-46.72583023763782 -23.52382391234469),-23.52382391234469,-46.72583023763782
104,104,105,Vila Hamburguesa,36,São Paulo,90,Vila Leopoldina,149.18,POINT (-46.72632077490322 -23.53319428189138),-23.533194281891376,-46.72632077490322
105,105,106,CEASA,36,São Paulo,90,Vila Leopoldina,197.78,POINT (-46.73852914580051 -23.53587775268119),-23.535877752681195,-46.738529145800506
106,106,107,Vila Leopoldina,36,São Paulo,90,Vila Leopoldina,91.65,POINT (-46.73337156339429 -23.52690320555768),-23.526903205557684,-46.733371563394286
107,107,108,Emissário,36,São Paulo,90,Vila Leopoldina,190.52,POINT (-46.73911491652208 -23.52196841150929),-23.521968411509288,-46.73911491652208
108,108,109,Vila Zatt,36,São Paulo,64,Pirituba,1220.22,POINT (-46.72887533486463 -23.47410328064225),-23.47410328064225,-46.72887533486463
109,109,110,Pirituba,36,São Paulo,64,Pirituba,488.92,POINT (-46.71841098784506 -23.49733575477252),-23.49733575477252,-46.71841098784506
110,110,111,São Domingos,36,São Paulo,73,São Domingos,581.76,POINT (-46.7384882474412 -23.49947384405631),-23.499473844056308,-46.738488247441204
111,111,112,Jardim Mutinga,36,São Paulo,73,São Domingos,411.97,POINT (-46.75887232725376 -23.484676419879),-23.484676419878998,-46.75887232725376
112,112,113,Vila Jaguara,36,São Paulo,39,Jaguara,454.34,POINT (-46.74690296053623 -23.51096219800022),-23.510962198000218,-46.746902960536225
113,113,114,Parque do Jaraguá,36,São Paulo,41,Jaraguá,489.12,POINT (-46.76498894675171 -23.46249610612937),-23.462496106129368,-46.76498894675171
114,114,115,Nova Jaraguá,36,São Paulo,41,Jaraguá,777.78,POINT (-46.75162931124406 -23.44907236370205),-23.44907236370205,-46.75162931124406
115,115,116,Parada de Taipas,36,São Paulo,41,Jaraguá,1553.24,POINT (-46.72510207476022 -23.43865741675437),-23.438657416754374,-46.725102074760215
116,116,117,Parque Morro Doce,36,São Paulo,3,Anhanguera,1527.16,POINT (-46.80125175568398 -23.43756843218928),-23.437568432189284,-46.80125175568398
117,117,118,Anhanguera,36,São Paulo,3,Anhanguera,1812.79,POINT (-46.78562405999672 -23.42417484333487),-23.42417484333487,-46.78562405999672
118,118,119,Perus,36,São Paulo,62,Perus,2369.13,POINT (-46.74569321436882 -23.40788613806925),-23.407886138069248,-46.74569321436882
119,119,120,Vista Alegre,36,São Paulo,11,Brasilândia,742.47,POINT (-46.68550255534269 -23.43156949213917),-23.43156949213917,-46.68550255534269
120,120,121,Jardim Damasceno,36,São Paulo,11,Brasilândia,573.73,POINT (-46.68706862604566 -23.4492668347527),-23.449266834752702,-46.68706862604566
121,121,122,Vila Souza,36,São Paulo,11,Brasilândia,220.86,POINT (-46.7058415687569 -23.45406163926992),-23.454061639269923,-46.705841568756895
122,122,123,Vila Terezinha,36,São Paulo,11,Brasilândia,250.78,POINT (-46.68992483032402 -23.46363476450263),-23.463634764502626,-46.68992483032402
123,123,124,Brasilândia,36,São Paulo,11,Brasilândia,318.28,POINT (-46.68225142882049 -23.47148162242403),-23.471481622424026,-46.68225142882049
124,124,125,Vila Morro Grande,36,São Paulo,29,Freguesia do Ó,413.07,POINT (-46.70369329712033 -23.4751555031278),-23.475155503127798,-46.70369329712033
125,125,126,Itaberaba,36,São Paulo,29,Freguesia do Ó,207.42,POINT (-46.68543553796228 -23.48208321634981),-23.482083216349807,-46.685435537962285
126,126,127,Freguesia do Ó,36,São Paulo,29,Freguesia do Ó,485.85,POINT (-46.69630619119486 -23.49732453611391),-23.49732453611391,-46.69630619119486
127,127,128,Carandiru,36,São Paulo,71,Santana,38.03,POINT (-46.62575229994312 -23.50729513185685),-23.50729513185685,-46.625752299943116
128,128,129,Santana,36,São Paulo,71,Santana,54.36,POINT (-46.62192089205585 -23.50150172508246),-23.50150172508246,-46.62192089205585
129,129,130,Zaki Narchi,36,São Paulo,71,Santana,71.32,POINT (-46.61951349849706 -23.50698884632518),-23.506988846325182,-46.619513498497064
130,130,131,Tietê,36,São Paulo,71,Santana,78.6,POINT (-46.62451900705316 -23.5155596279124),-23.5155596279124,-46.62451900705316
131,131,132,Parque Anhembi,36,São Paulo,71,Santana,313.52,POINT (-46.63838494862088 -23.51160902278383),-23.511609022783826,-46.63838494862088
132,132,133,Alfredo Pujol,36,São Paulo,71,Santana,215.07,POINT (-46.63230318457593 -23.49840364572761),-23.49840364572761,-46.63230318457593
133,133,134,Santa Terezinha,36,São Paulo,71,Santana,251.08,POINT (-46.63809769112512 -23.49040782518809),-23.49040782518809,-46.63809769112512
134,134,135,Jardim São Paulo,36,São Paulo,71,Santana,291.23,POINT (-46.61880306996711 -23.48896708905205),-23.488967089052053,-46.618803069967115
135,135,136,Casa Verde,36,São Paulo,21,Casa Verde,325.35,POINT (-46.66014319218532 -23.5083107647811),-23.508310764781104,-46.66014319218532
136,136,137,Parque Peruche,36,São Paulo,21,Casa Verde,391.87,POINT (-46.6545867655588 -23.494762956567),-23.494762956567005,-46.6545867655588
137,137,138,Limão,36,São Paulo,50,Limão,171.8,POINT (-46.67839117944506 -23.50825141952859),-23.50825141952859,-46.678391179445065
138,138,139,Jardim Primavera,36,São Paulo,50,Limão,192.75,POINT (-46.680177012182 -23.49340443157553),-23.49340443157553,-46.680177012182
139,139,140,Vila Santa Maria,36,São Paulo,50,Limão,277.94,POINT (-46.67071952374913 -23.49378456492126),-23.493784564921256,-46.670719523749135
140,140,141,Cachoeirinha,36,São Paulo,13,Cachoeirinha,478.58,POINT (-46.65894176907469 -23.47168217723682),-23.47168217723682,-46.65894176907469
141,141,142,Jardim Peri,36,São Paulo,13,Cachoeirinha,443.68,POINT (-46.66387403400002 -23.45488082365296),-23.45488082365296,-46.663874034000024
142,142,143,Reserva da Cantareira,36,São Paulo,13,Cachoeirinha,436.61,POINT (-46.66279215470882 -23.43466221250689),-23.43466221250689,-46.66279215470882
143,143,144,Mandaqui,36,São Paulo,51,Mandaqui,552.45,POINT (-46.6380797483654 -23.47677772911339),-23.476777729113387,-46.6380797483654
144,144,145,Horto Florestal,36,São Paulo,51,Mandaqui,342.18,POINT (-46.64123038077164 -23.45778552024203),-23.457785520242034,-46.64123038077164
145,145,146,ETA Guaraú,36,São Paulo,51,Mandaqui,428.67,POINT (-46.64308098251895 -23.43815442681389),-23.438154426813888,-46.64308098251895
146,146,147,Parque Palmas do Tremembé,36,São Paulo,83,Tremembé,407.03,POINT (-46.60860481581526 -23.45049807997579),-23.450498079975787,-46.608604815815255
147,147,148,Tremembé,36,São Paulo,83,Tremembé,331.62,POINT (-46.62354348067613 -23.45426602158071),-23.45426602158071,-46.62354348067613
148,148,149,Cantareira,36,São Paulo,83,Tremembé,2886.45,POINT (-46.58489557664105 -23.3993761019077),-23.399376101907702,-46.584895576641046
149,149,150,Jardim das Pedras,36,São Paulo,83,Tremembé,1609.01,POINT (-46.58336012244846 -23.42169386371573),-23.42169386371573,-46.58336012244846
150,150,151,Jardim Guapira,36,São Paulo,83,Tremembé,548.53,POINT (-46.58925496319713 -23.45112528616478),-23.45112528616478,-46.589254963197135
151,151,152,Parada Inglesa,36,São Paulo,84,Tucuruvi,242.67,POINT (-46.60325291055636 -23.48582824083169),-23.48582824083169,-46.60325291055636
152,152,153,Tucuruvi,36,São Paulo,84,Tucuruvi,358.5,POINT (-46.61600561901938 -23.46990176108443),-23.46990176108443,-46.61600561901938
153,153,154,Vila Gustavo,36,São Paulo,84,Tucuruvi,345.8,POINT (-46.59690214146377 -23.47428275376944),-23.47428275376944,-46.59690214146377
154,154,155,Cohab Jova Rural,36,São Paulo,38,Jaçanã,254.58,POINT (-46.57316525434836 -23.44847298685066),-23.448472986850657,-46.57316525434836
155,155,156,Jaçanã,36,São Paulo,38,Jaçanã,386.23,POINT (-46.57858730069744 -23.46656379345557),-23.46656379345557,-46.57858730069744
156,156,157,Parque Edu Chaves,36,São Paulo,38,Jaçanã,109.91,POINT (-46.56477576756698 -23.47745756943014),-23.47745756943014,-46.56477576756698
157,157,158,Vila Medeiros,36,São Paulo,94,Vila Medeiros,335.02,POINT (-46.586606631211 -23.48982833927619),-23.48982833927619,-46.586606631211005
158,158,159,Jardim Brasil,36,São Paulo,94,Vila Medeiros,454.37,POINT (-46.57037351885377 -23.487795166251),-23.487795166251,-46.57037351885377
159,159,160,Jardim Japão,36,São Paulo,91,Vila Maria,396.23,POINT (-46.58174232227594 -23.50461620688803),-23.50461620688803,-46.581742322275936
160,160,161,Parque Novo Mundo,36,São Paulo,91,Vila Maria,551.36,POINT (-46.56917904319626 -23.51651835386743),-23.516518353867426,-46.56917904319626
161,161,162,Vila Maria,36,São Paulo,91,Vila Maria,234.12,POINT (-46.58985400432775 -23.51851582686425),-23.51851582686425,-46.589854004327755
162,162,163,Vila Isolina Mazzei,36,São Paulo,88,Vila Guilherme,379.5,POINT (-46.60334819467893 -23.50266109421787),-23.502661094217874,-46.60334819467893
163,163,164,Vila Guilherme,36,São Paulo,88,Vila Guilherme,170.9,POINT (-46.60196286392122 -23.51908476566033),-23.519084765660327,-46.601962863921216
164,164,165,Coroa,36,São Paulo,88,Vila Guilherme,174.39,POINT (-46.61346594578148 -23.51357411241457),-23.51357411241457,-46.61346594578148
165,165,166,Gomes Cardim,36,São Paulo,82,Tatuapé,243.24,POINT (-46.5615515221368 -23.54590822284772),-23.545908222847718,-46.561551522136796
166,166,167,Tatuapé,36,São Paulo,82,Tatuapé,156.88,POINT (-46.57353232526871 -23.546229650617),-23.546229650616997,-46.57353232526871
167,167,168,Chácara do Piqueri,36,São Paulo,82,Tatuapé,198.59,POINT (-46.57630299848496 -23.53298287579386),-23.53298287579386,-46.576302998484955
168,168,169,Parque São Jorge,36,São Paulo,82,Tatuapé,252.07,POINT (-46.56121740304332 -23.53099733052579),-23.530997330525786,-46.561217403043315
169,169,170,Penha,36,São Paulo,60,Penha,384.16,POINT (-46.54828926751944 -23.52137205389795),-23.521372053897945,-46.548289267519436
170,170,171,Tiquatira,36,São Paulo,60,Penha,324.46,POINT (-46.53212453298978 -23.52223920485225),-23.522239204852248,-46.532124532989776
171,171,172,Vila Esperança,36,São Paulo,60,Penha,228.82,POINT (-46.51770813908769 -23.52387308377316),-23.52387308377316,-46.51770813908769
172,172,173,Vila Ré,36,São Paulo,60,Penha,208.23,POINT (-46.49837622346982 -23.52680315471017),-23.526803154710173,-46.49837622346982
173,173,174,Rui Barbosa,36,São Paulo,18,Cangaíba,271.23,POINT (-46.50281963185796 -23.50083844308951),-23.500838443089513,-46.50281963185796
174,174,175,Estação Eng. Goulart,36,São Paulo,18,Cangaíba,193.33,POINT (-46.51439637239123 -23.50302877565345),-23.503028775653448,-46.514396372391225
175,175,176,Cangaíba,36,São Paulo,18,Cangaíba,333.53,POINT (-46.53128091995156 -23.50773839091261),-23.50773839091261,-46.53128091995156
176,176,177,Parque Ecológico do Tietê,36,São Paulo,18,Cangaíba,530.85,POINT (-46.52137598707579 -23.49191257779858),-23.491912577798576,-46.52137598707579
177,177,178,USP Leste I,36,São Paulo,18,Cangaíba,50.18,POINT (-46.50179357416633 -23.48407402273907),-23.484074022739073,-46.50179357416633
178,178,179,USP Leste II,36,São Paulo,28,Ermelino Matarazzo,122.83,POINT (-46.48363691706911 -23.47940758752647),-23.47940758752647,-46.48363691706911
179,179,180,Ermelino Matarazzo,36,São Paulo,28,Ermelino Matarazzo,448.82,POINT (-46.49043364369418 -23.49033695974036),-23.490336959740358,-46.49043364369418
180,180,181,Parque Buturussu,36,São Paulo,28,Ermelino Matarazzo,371.83,POINT (-46.4769018671208 -23.49612971906661),-23.496129719066605,-46.4769018671208
181,181,182,Ponte Rasa,36,São Paulo,65,Ponte Rasa,365.36,POINT (-46.50142552119679 -23.51386705744039),-23.513867057440386,-46.50142552119679
182,182,183,Burgo Paulista,36,São Paulo,65,Ponte Rasa,291.63,POINT (-46.48360320864662 -23.51774689037748),-23.517746890377477,-46.48360320864662
183,183,184,Limoeiro,36,São Paulo,89,Vila Jacuí,143.33,POINT (-46.4718590559133 -23.51194611050639),-23.511946110506386,-46.4718590559133
184,184,185,Laranja da China,36,São Paulo,89,Vila Jacuí,131.72,POINT (-46.46406541692528 -23.50873731656971),-23.508737316569714,-46.46406541692528
185,185,186,Pedro José Nunes,36,São Paulo,89,Vila Jacuí,86.18,POINT (-46.46115645831897 -23.50300487342308),-23.503004873423077,-46.46115645831897
186,186,187,Parque Cruzeiro do Sul,36,São Paulo,89,Vila Jacuí,249.91,POINT (-46.46204047374546 -23.49025952304924),-23.49025952304924,-46.46204047374546
187,187,188,Vila Jacuí,36,São Paulo,89,Vila Jacuí,211.87,POINT (-46.45155936418772 -23.50640562250845),-23.506405622508453,-46.451559364187716
188,188,189,Parada XV,36,São Paulo,36,Itaquera,324.46,POINT (-46.44185342533083 -23.53410387020473),-23.53410387020473,-46.44185342533083
189,189,190,Itaquera,36,São Paulo,36,Itaquera,283.17,POINT (-46.45345612560394 -23.54719133430931),-23.547191334309314,-46.453456125603935
190,190,191,Arena Corinthians,36,São Paulo,36,Itaquera,140.29,POINT (-46.46897360046753 -23.54482504760493),-23.544825047604927,-46.46897360046753
191,191,192,Vila Campanela,36,São Paulo,36,Itaquera,230.53,POINT (-46.46551896043229 -23.53379439702968),-23.53379439702968,-46.46551896043229
192,192,193,Araucárias,36,São Paulo,36,Itaquera,129.58,POINT (-46.46899223196173 -23.52201148292864),-23.522011482928644,-46.46899223196173
193,193,194,Parque Guarani,36,São Paulo,36,Itaquera,126.45,POINT (-46.45896396571325 -23.52345434964526),-23.523454349645263,-46.458963965713245
194,194,195,Rio Verde,36,São Paulo,36,Itaquera,238.76,POINT (-46.45036152414592 -23.5229370716713),-23.5229370716713,-46.45036152414592
195,195,196,Saudade,36,São Paulo,76,São Miguel,207.28,POINT (-46.43704792771975 -23.51855642500789),-23.518556425007887,-46.437047927719746
196,196,197,São Miguel Paulista,36,São Paulo,76,São Miguel,302.65,POINT (-46.44720054787886 -23.49498980967544),-23.49498980967544,-46.447200547878865
197,197,198,Cidade Nitro-Operária,36,São Paulo,76,São Miguel,357.92,POINT (-46.43688156553648 -23.49602163362209),-23.496021633622085,-46.43688156553648
198,198,199,Jardim Helena,36,São Paulo,43,Jardim Helena,684.67,POINT (-46.4198035920865 -23.48311193997969),-23.483111939979693,-46.419803592086495
199,199,200,Jardim Romano,36,São Paulo,43,Jardim Helena,230.77,POINT (-46.39156826214911 -23.48475904533275),-23.48475904533275,-46.39156826214911
200,200,201,Vila Curuçá,36,São Paulo,86,Vila Curuçá,503.17,POINT (-46.41659259669877 -23.50257655993623),-23.502576559936234,-46.41659259669877
201,201,202,Jardim Robru,36,São Paulo,86,Vila Curuçá,449.19,POINT (-46.41412484009247 -23.51796416211328),-23.517964162113284,-46.41412484009247
202,202,203,Lajeado,36,São Paulo,47,Lajeado,276.95,POINT (-46.42304244980333 -23.52975139270164),-23.529751392701645,-46.423042449803326
203,203,204,Fábrica Bandeirantes,36,São Paulo,47,Lajeado,615.33,POINT (-46.40172893148753 -23.53534052441302),-23.535340524413023,-46.40172893148753
204,204,205,Fazenda Itaim,36,São Paulo,35,Itaim Paulista,462.24,POINT (-46.38255833810884 -23.51160079538851),-23.511600795388514,-46.38255833810884
205,205,206,Itaim Paulista,36,São Paulo,35,Itaim Paulista,302.19,POINT (-46.39752722319869 -23.50302514250576),-23.50302514250576,-46.39752722319869
206,206,207,Jardim das Oliveiras,36,São Paulo,35,Itaim Paulista,460.11,POINT (-46.38226424593493 -23.49498309337405),-23.494983093374053,-46.382264245934934
207,207,208,Vila Califórnia,36,São Paulo,20,Carrão,340.04,POINT (-46.54730045860329 -23.54518825819382),-23.54518825819382,-46.54730045860329
208,208,209,Vila Carrão,36,São Paulo,20,Carrão,440.28,POINT (-46.53105270712877 -23.5556390894128),-23.5556390894128,-46.53105270712877
209,209,210,Jardim Anália Franco,36,São Paulo,87,Vila Formosa,334.04,POINT (-46.5542690742644 -23.56084773276319),-23.56084773276319,-46.554269074264404
210,210,211,Vila Formosa,36,São Paulo,87,Vila Formosa,417.48,POINT (-46.53895532919032 -23.57316916988961),-23.573169169889606,-46.53895532919032
211,211,212,Barreira Grande,36,São Paulo,4,Aricanduva,280.1,POINT (-46.51621804591878 -23.58090149086727),-23.580901490867273,-46.51621804591878
212,212,213,Aricanduva,36,São Paulo,4,Aricanduva,406.17,POINT (-46.51490029621497 -23.56896034544917),-23.568960345449167,-46.51490029621497
213,213,214,Frei Mont'Alverne,36,São Paulo,93,Vila Matilde,225.2,POINT (-46.53337717579237 -23.53949334733619),-23.539493347336194,-46.53337717579237
214,214,215,Vila Matilde,36,São Paulo,93,Vila Matilde,330.17,POINT (-46.51833753338186 -23.54237695991673),-23.542376959916734,-46.51833753338186
215,215,216,Cidade Patriarca,36,São Paulo,93,Vila Matilde,336.5,POINT (-46.50722332364631 -23.53639278120788),-23.53639278120788,-46.507223323646315
216,216,217,Cidade A.E.Carvalho,36,São Paulo,5,Artur Alvim,265.77,POINT (-46.48115100827822 -23.53297162449865),-23.53297162449865,-46.481151008278225
217,217,218,Artur Alvim,36,São Paulo,5,Artur Alvim,387.27,POINT (-46.48863817308767 -23.54502845167691),-23.545028451676913,-46.48863817308767
218,218,219,Cidade Líder,36,São Paulo,24,Cidade Líder,347.51,POINT (-46.49974671152947 -23.55620166369561),-23.556201663695607,-46.49974671152947
219,219,220,Santa Marcelina,36,São Paulo,24,Cidade Líder,265.94,POINT (-46.47455977435778 -23.55756906605848),-23.557569066058477,-46.47455977435778
220,220,221,Parque Savoy,36,São Paulo,24,Cidade Líder,444.75,POINT (-46.49393349807952 -23.56909795769435),-23.569097957694346,-46.49393349807952
221,221,222,Vila Carmosina,36,São Paulo,58,Parque do Carmo,343.76,POINT (-46.4690816694017 -23.56510069025537),-23.56510069025537,-46.4690816694017
222,222,223,Fazenda Caguaçu,36,São Paulo,58,Parque do Carmo,439.53,POINT (-46.4510502964292 -23.57130962802077),-23.571309628020767,-46.4510502964292
223,223,224,Parque do Carmo,36,São Paulo,58,Parque do Carmo,777.43,POINT (-46.4663346951435 -23.5832159898044),-23.583215989804398,-46.4663346951435
224,224,225,Gleba do Pêssego,36,São Paulo,46,José Bonifácio,1028.47,POINT (-46.43168668774567 -23.57577476044367),-23.57577476044367,-46.431686687745675
225,225,226,José Bonifácio,36,São Paulo,46,José Bonifácio,416.53,POINT (-46.43380046420869 -23.54649529917173),-23.546495299171728,-46.43380046420869
226,226,227,Guaianases,36,São Paulo,31,Guaianases,472.34,POINT (-46.41447974047622 -23.55121928349584),-23.55121928349584,-46.41447974047622
227,227,228,Juscelino Kubitschek,36,São Paulo,31,Guaianases,418.82,POINT (-46.39740191655956 -23.56203959310701),-23.562039593107013,-46.39740191655956
228,228,229,Cidade Tiradentes,36,São Paulo,25,Cidade Tiradentes,953.59,POINT (-46.40362682288561 -23.57818188800547),-23.578181888005474,-46.403626822885606
229,229,230,Santa Etelvina,36,São Paulo,25,Cidade Tiradentes,541.3,POINT (-46.39520152684562 -23.59600340774039),-23.596003407740394,-46.39520152684562
230,230,231,Terceira Divisão,36,São Paulo,32,Iguatemi,1130.9,POINT (-46.41650061797156 -23.61700105112433),-23.617001051124326,-46.416500617971565
231,231,232,Iguatemi,36,São Paulo,32,Iguatemi,498.47,POINT (-46.43434230377435 -23.60770996676486),-23.60770996676486,-46.43434230377435
232,232,233,Sítio Carrãozinho,36,São Paulo,32,Iguatemi,323.28,POINT (-46.44933371624838 -23.60429840650587),-23.604298406505873,-46.449333716248375
233,233,234,Parque São Rafael,36,São Paulo,77,São Rafael,742.33,POINT (-46.44601157889625 -23.63167071954709),-23.631670719547092,-46.446011578896254
234,234,235,Rodolfo Pirani,36,São Paulo,77,São Rafael,566.04,POINT (-46.46387900294451 -23.62344167595852),-23.623441675958517,-46.46387900294451
235,235,236,Ipiranga,36,São Paulo,33,Ipiranga,91.94,POINT (-46.60244929871438 -23.58777867946713),-23.587778679467128,-46.60244929871438
236,236,237,Sacomã,36,São Paulo,33,Ipiranga,90.34,POINT (-46.60141582945959 -23.59680004180063),-23.596800041800627,-46.60141582945959
237,237,238,Alto do Ipiranga,36,São Paulo,33,Ipiranga,160.81,POINT (-46.60920594479143 -23.60248253287505),-23.60248253287505,-46.609205944791434
238,238,239,Vila São José,36,São Paulo,33,Ipiranga,177.55,POINT (-46.61306175504657 -23.58982182325575),-23.589821823255754,-46.613061755046566
239,239,240,Vila Monumento,36,São Paulo,33,Ipiranga,165.19,POINT (-46.60976525510742 -23.57731006994175),-23.57731006994175,-46.60976525510742
240,240,241,Vila Independência,36,São Paulo,33,Ipiranga,170.22,POINT (-46.59996886417414 -23.58082584095548),-23.580825840955477,-46.599968864174144
241,241,242,Vila Carioca,36,São Paulo,33,Ipiranga,249.11,POINT (-46.58852294919813 -23.60233978241467),-23.602339782414674,-46.58852294919813
242,242,243,Moinho Velho,36,São Paulo,69,Sacomã,347.41,POINT (-46.60066885242502 -23.61701766887753),-23.617017668877534,-46.600668852425024
243,243,244,Vila Heliópolis,36,São Paulo,69,Sacomã,232.81,POINT (-46.58849400783689 -23.61545835392776),-23.61545835392776,-46.588494007836886
244,244,245,São João Clímaco,36,São Paulo,69,Sacomã,198.15,POINT (-46.58854249147375 -23.63316246695096),-23.633162466950964,-46.58854249147375
245,245,246,Anchieta,36,São Paulo,69,Sacomã,217.08,POINT (-46.59531981571001 -23.64554997534807),-23.64554997534807,-46.59531981571001
246,246,247,Vila das Mercês,36,São Paulo,69,Sacomã,468.94,POINT (-46.60562600627825 -23.64019490013597),-23.64019490013597,-46.60562600627825
247,247,248,Parque do Estado,36,São Paulo,27,Cursino,445.41,POINT (-46.62266748215662 -23.65123671180425),-23.651236711804252,-46.62266748215662
248,248,249,Água Funda,36,São Paulo,27,Cursino,276.3,POINT (-46.61986526512715 -23.6314093430577),-23.631409343057697,-46.61986526512715
249,249,250,Jardim da Saúde,36,São Paulo,27,Cursino,182.94,POINT (-46.62276265081659 -23.6155977891042),-23.6155977891042,-46.62276265081659
250,250,251,Vila Gumercindo,36,São Paulo,27,Cursino,137.19,POINT (-46.61946934059719 -23.60227164286787),-23.602271642867866,-46.61946934059719
251,251,252,Jardim Previdência,36,São Paulo,27,Cursino,165.81,POINT (-46.61406870996488 -23.61711229132348),-23.61711229132348,-46.61406870996488
252,252,253,Tamanduateí,36,São Paulo,95,Vila Prudente,112.99,POINT (-46.58764126590749 -23.59125719912251),-23.591257199122506,-46.587641265907486
253,253,254,Orfanato,36,São Paulo,95,Vila Prudente,354.26,POINT (-46.57619988719468 -23.58388530951603),-23.58388530951603,-46.57619988719468
254,254,255,Vila Zelina,36,São Paulo,95,Vila Prudente,492.94,POINT (-46.56627952046603 -23.59891035661064),-23.59891035661064,-46.566279520466026
255,255,256,Linhas Corrente,36,São Paulo,74,São Lucas,251.81,POINT (-46.55435523931585 -23.58867457903093),-23.58867457903093,-46.554355239315846
256,256,257,Vila Ema,36,São Paulo,74,São Lucas,267.22,POINT (-46.54349525609946 -23.58437004156321),-23.58437004156321,-46.54349525609946
257,257,258,Parque São Lucas,36,São Paulo,74,São Lucas,449.68,POINT (-46.53703224028157 -23.60383712463415),-23.603837124634147,-46.53703224028157
258,258,259,Vila Cardoso Franco,36,São Paulo,78,Sapopemba,163.88,POINT (-46.50813219471456 -23.61757800323162),-23.617578003231625,-46.50813219471456
259,259,260,Parque Santa Madalena,36,São Paulo,78,Sapopemba,204.85,POINT (-46.51604150717375 -23.60839381332991),-23.60839381332991,-46.516041507173746
260,260,261,Jardim Colorado,36,São Paulo,78,Sapopemba,320.26,POINT (-46.52468428705468 -23.59381155382593),-23.593811553825926,-46.52468428705468
261,261,262,Teotônio Vilela,36,São Paulo,78,Sapopemba,346.33,POINT (-46.50700037600225 -23.59830983497935),-23.598309834979354,-46.50700037600225
262,262,263,Fazenda da Juta,36,São Paulo,78,Sapopemba,329.57,POINT (-46.49314607583976 -23.61648298422311),-23.616482984223108,-46.49314607583976
263,263,264,São Mateus,36,São Paulo,75,São Mateus,427.59,POINT (-46.48192879044729 -23.60634599324836),-23.60634599324836,-46.48192879044729
264,264,265,Cidade IV Centenário,36,São Paulo,75,São Mateus,332.58,POINT (-46.4949560362524 -23.59134725864924),-23.59134725864924,-46.4949560362524
265,265,266,Rio Claro,36,São Paulo,75,São Mateus,218.36,POINT (-46.48044960224543 -23.59013169349165),-23.59013169349165,-46.48044960224543
266,266,267,Cidade Satélite,36,São Paulo,75,São Mateus,300.48,POINT (-46.46424461339068 -23.60793043435397),-23.607930434353968,-46.46424461339068
267,267,268,Joaquim Nabuco,36,São Paulo,15,Campo Belo,198.44,POINT (-46.67768233205555 -23.63035835379099),-23.63035835379099,-46.67768233205555
268,268,269,Vieira de Moraes,36,São Paulo,15,Campo Belo,171.28,POINT (-46.67260153016355 -23.6234404766636),-23.623440476663603,-46.67260153016355
269,269,270,Campo Belo,36,São Paulo,15,Campo Belo,138.57,POINT (-46.66865727078439 -23.61789558550446),-23.61789558550446,-46.668657270784394
270,270,271,Congonhas,36,São Paulo,15,Campo Belo,179.42,POINT (-46.65643017883954 -23.62772456212096),-23.627724562120964,-46.65643017883954
271,271,272,Jardim Aeroporto,36,São Paulo,15,Campo Belo,198.55,POINT (-46.66284486985234 -23.63696854670205),-23.63696854670205,-46.66284486985234
272,272,273,Vila Santa Catarina,36,São Paulo,37,Jabaquara,325.71,POINT (-46.66000779005191 -23.6498615467473),-23.6498615467473,-46.66000779005191
273,273,274,Jabaquara,36,São Paulo,37,Jabaquara,288.72,POINT (-46.64656578604078 -23.64378706698469),-23.643787066984693,-46.64656578604078
274,274,275,Cidade Vargas,36,São Paulo,37,Jabaquara,347.45,POINT (-46.63450141001506 -23.64078570982279),-23.640785709822786,-46.634501410015055
275,275,276,Jardim Bom Clima,36,São Paulo,37,Jabaquara,445.92,POINT (-46.6432988824162 -23.66252787439236),-23.662527874392357,-46.643298882416204
276,276,277,Cupecê,36,São Paulo,22,Cidade Ademar,416.89,POINT (-46.66898840963044 -23.66131047549371),-23.661310475493714,-46.668988409630444
277,277,278,Jardim Miriam,36,São Paulo,22,Cidade Ademar,513.94,POINT (-46.64434841434107 -23.67876744104285),-23.67876744104285,-46.644348414341074
278,278,279,Vila Missionária,36,São Paulo,22,Cidade Ademar,295.4,POINT (-46.66035174887166 -23.68248359669298),-23.682483596692983,-46.66035174887166
279,279,280,Jurubatuba,36,São Paulo,16,Campo Grande,482.59,POINT (-46.6966029298312 -23.67093595082273),-23.67093595082273,-46.6966029298312
280,280,281,Vila São Pedro,36,São Paulo,16,Campo Grande,312.58,POINT (-46.68415120754967 -23.66387178313009),-23.663871783130087,-46.68415120754967
281,281,282,Campo Grande,36,São Paulo,16,Campo Grande,272.36,POINT (-46.67527005799689 -23.67998188677187),-23.679981886771866,-46.67527005799689
282,282,283,Vila Sabará,36,São Paulo,16,Campo Grande,234.56,POINT (-46.68594918092275 -23.68929795921877),-23.689297959218774,-46.68594918092275
283,283,284,Mar Paulista,36,São Paulo,59,Pedreira,548.66,POINT (-46.6641083903307 -23.6966056535412),-23.696605653541198,-46.6641083903307
284,284,285,Pedreira,36,São Paulo,59,Pedreira,1302.69,POINT (-46.64354947560323 -23.71107542041336),-23.711075420413362,-46.64354947560323
285,285,286,Vila Socorro,36,São Paulo,81,Socorro,293.26,POINT (-46.71512625923872 -23.66852219851809),-23.668522198518094,-46.71512625923872
286,286,287,Parque Interlagos,36,São Paulo,81,Socorro,935.66,POINT (-46.71313060653156 -23.69087006180802),-23.690870061808024,-46.713130606531564
287,287,288,Jardim Represa,36,São Paulo,23,Cidade Dutra,783.73,POINT (-46.71612647133222 -23.72428113579697),-23.724281135796968,-46.716126471332224
288,288,289,Rio Bonito,36,São Paulo,23,Cidade Dutra,495.82,POINT (-46.69608148157711 -23.70932698544095),-23.709326985440946,-46.69608148157711
289,289,290,SESC Interlagos,36,São Paulo,23,Cidade Dutra,736.48,POINT (-46.67971866763124 -23.71788793731907),-23.71788793731907,-46.67971866763124
290,290,291,Jardim Presidente,36,São Paulo,23,Cidade Dutra,762.54,POINT (-46.71193624739715 -23.74541919564698),-23.74541919564698,-46.711936247397155
291,291,292,Vila Natal,36,São Paulo,30,Grajaú,415.09,POINT (-46.70317395998964 -23.76198337412327),-23.761983374123268,-46.70317395998964
292,292,293,Grajaú,36,São Paulo,30,Grajaú,540.7,POINT (-46.68822474089443 -23.74189145038096),-23.741891450380958,-46.688224740894434
293,293,294,Cocaia,36,São Paulo,30,Grajaú,1093.33,POINT (-46.6619530134959 -23.74391873870201),-23.74391873870201,-46.661953013495896
294,294,295,Belmira Marin,36,São Paulo,30,Grajaú,1236.83,POINT (-46.67841590665993 -23.76976830603528),-23.76976830603528,-46.67841590665993
295,295,296,Bororé,36,São Paulo,30,Grajaú,5992.56,POINT (-46.66336895153047 -23.80824520066042),-23.808245200660416,-46.663368951530465
296,296,297,Jaceguava,36,São Paulo,56,Parelheiros,3512.69,POINT (-46.76056524719031 -23.77666405506155),-23.77666405506155,-46.760565247190314
297,297,298,Parelheiros,36,São Paulo,56,Parelheiros,11667.08,POINT (-46.70289162257924 -23.84612583156012),-23.84612583156012,-46.702891622579244
298,298,299,Marsilac,36,São Paulo,52,Marsilac,20795.96,POINT (-46.70773105547821 -23.93501988416453),-23.935019884164525,-46.70773105547821
299,299,300,Granja Julieta,36,São Paulo,72,Santo Amaro,616.88,POINT (-46.70639177473286 -23.63442629311775),-23.634426293117752,-46.70639177473286
300,300,301,Chácara Flora,36,São Paulo,72,Santo Amaro,452.25,POINT (-46.6859517058564 -23.64109489590099),-23.641094895900988,-46.6859517058564
301,301,302,Santo Amaro,36,São Paulo,72,Santo Amaro,257.11,POINT (-46.69981862948846 -23.65179768292356),-23.65179768292356,-46.69981862948846
302,302,303,Vila Miranda,36,São Paulo,72,Santo Amaro,271.15,POINT (-46.71494183699383 -23.65296276099085),-23.652962760990853,-46.71494183699383
303,303,304,Jardim São Luís,36,São Paulo,45,Jardim São Luís,408.45,POINT (-46.74459038474654 -23.65099370634615),-23.65099370634615,-46.744590384746544
304,304,305,Centro Empresarial,36,São Paulo,45,Jardim São Luís,675.29,POINT (-46.73986737243171 -23.66288577612111),-23.66288577612111,-46.73986737243171
305,305,306,Guarapiranga,36,São Paulo,45,Jardim São Luís,1513.25,POINT (-46.73738633783186 -23.69662435945693),-23.69662435945693,-46.73738633783186
306,306,307,Jardim Capela,36,São Paulo,42,Jardim Ângela,2022.05,POINT (-46.76365065264689 -23.73109868081821),-23.73109868081821,-46.763650652646895
307,307,308,Riviera,36,São Paulo,42,Jardim Ângela,798.79,POINT (-46.77334335376607 -23.70749929353725),-23.707499293537246,-46.773343353766066
308,308,309,Jardim Turquesa,36,São Paulo,42,Jardim Ângela,282.87,POINT (-46.78692522789346 -23.69663899856636),-23.69663899856636,-46.786925227893455
309,309,310,Morro do Índio,36,São Paulo,42,Jardim Ângela,114.64,POINT (-46.7745270503432 -23.68419203134584),-23.684192031345844,-46.774527050343195
310,310,311,Jardim Ângela,36,São Paulo,42,Jardim Ângela,463.77,POINT (-46.76106404534588 -23.68550743594058),-23.685507435940576,-46.761064045345876
311,311,312,Capão Redondo,36,São Paulo,19,Capão Redondo,219.39,POINT (-46.76225500962389 -23.65975100523523),-23.65975100523523,-46.76225500962389
312,312,313,Jardim Sônia Ingá,36,São Paulo,19,Capão Redondo,105.38,POINT (-46.76858728383664 -23.67387133039148),-23.673871330391478,-46.76858728383664
313,313,314,Adventista,36,São Paulo,19,Capão Redondo,545.26,POINT (-46.78437356723078 -23.67745802007798),-23.67745802007798,-46.78437356723078
314,314,315,Parque Fernanda,36,São Paulo,19,Capão Redondo,512.27,POINT (-46.78588561092861 -23.6619888196252),-23.6619888196252,-46.78588561092861
315,315,316,Morumbi,36,São Paulo,55,Morumbi,271.46,POINT (-46.71269251064216 -23.58884259744021),-23.588842597440213,-46.71269251064216
316,316,317,Jóquei Clube,36,São Paulo,55,Morumbi,333.24,POINT (-46.69965204223903 -23.58582506952466),-23.58582506952466,-46.69965204223903
317,317,318,Fazenda Morumbi,36,São Paulo,55,Morumbi,320.73,POINT (-46.70472462571208 -23.60705915277187),-23.607059152771875,-46.70472462571208
318,318,319,Real Parque,36,São Paulo,55,Morumbi,223.42,POINT (-46.71794658217736 -23.60470234223885),-23.604702342238852,-46.71794658217736
319,319,320,Paraisópolis,36,São Paulo,85,Vila Andrade,361.95,POINT (-46.71790805082563 -23.61956254637941),-23.61956254637941,-46.717908050825635
320,320,321,Jardim Vitória Régia,36,São Paulo,85,Vila Andrade,370.18,POINT (-46.72812070790223 -23.63258333451283),-23.63258333451283,-46.72812070790223
321,321,322,Vila Suzana,36,São Paulo,85,Vila Andrade,300.5,POINT (-46.74003288467454 -23.62609223678386),-23.62609223678386,-46.74003288467454
322,322,323,Parque Arariba,36,São Paulo,17,Campo Limpo,346.59,POINT (-46.75618333413844 -23.6422504873261),-23.642250487326102,-46.75618333413844
323,323,324,Jardim Mitsutani,36,São Paulo,17,Campo Limpo,349.31,POINT (-46.77726807186979 -23.64328811811384),-23.64328811811384,-46.77726807186979
324,324,325,Pirajussara,36,São Paulo,17,Campo Limpo,270.05,POINT (-46.76453505398435 -23.6316402526667),-23.631640252666703,-46.76453505398435
325,325,326,Jardim Umarizal,36,São Paulo,17,Campo Limpo,294.91,POINT (-46.75355510461655 -23.62290670830233),-23.622906708302327,-46.753555104616545
326,326,327,Portal do Morumbi,36,São Paulo,96,Vila Sônia,151.43,POINT (-46.73249243823615 -23.60915359111489),-23.609153591114893,-46.73249243823615
327,327,328,Jardim Jussara,36,São Paulo,96,Vila Sônia,231.55,POINT (-46.74424963537504 -23.60698533761305),-23.606985337613054,-46.74424963537504
328,328,329,Vila Sônia,36,São Paulo,96,Vila Sônia,348.44,POINT (-46.73055359569648 -23.59511401961469),-23.59511401961469,-46.730553595696485
329,329,330,Jardim Maria do Carmo,36,São Paulo,96,Vila Sônia,277.55,POINT (-46.7485568420313 -23.59272124777845),-23.592721247778453,-46.7485568420313
330,330,331,Jardim Cambará,36,São Paulo,66,Raposo Tavares,480.2,POINT (-46.77223497618355 -23.59312705892191),-23.593127058921908,-46.77223497618355
331,331,332,Jardim João XXIII,36,São Paulo,66,Raposo Tavares,467.65,POINT (-46.79466474428536 -23.59659786893772),-23.596597868937724,-46.794664744285356
332,332,333,Raposo Tavares,36,São Paulo,66,Raposo Tavares,271.34,POINT (-46.79195812071362 -23.58365099358067),-23.58365099358067,-46.791958120713616
333,333,334,Rio Pequeno,36,São Paulo,68,Rio Pequeno,245.75,POINT (-46.74686533704426 -23.56903799951487),-23.56903799951487,-46.746865337044255
334,334,335,Jardim Ester Yolanda,36,São Paulo,68,Rio Pequeno,264.93,POINT (-46.75828512138911 -23.5781689419068),-23.5781689419068,-46.758285121389115
335,335,336,Jardim Adalgiza,36,São Paulo,68,Rio Pequeno,467.13,POINT (-46.7649921773711 -23.56809802109197),-23.568098021091966,-46.7649921773711
336,336,337,Parque Continental,36,São Paulo,40,Jaguaré,226.38,POINT (-46.75266142666175 -23.54811567368679),-23.548115673686787,-46.752661426661746
337,337,338,Jaguaré,36,São Paulo,40,Jaguaré,430.44,POINT (-46.74627174419042 -23.54137981837583),-23.541379818375827,-46.74627174419042
338,338,339,Cidade Universitária,36,São Paulo,12,Butantã,584.56,POINT (-46.72719233905082 -23.56206062826507),-23.562060628265066,-46.727192339050816
339,339,340,Butantã,36,São Paulo,12,Butantã,207.11,POINT (-46.71004467854865 -23.56985418988418),-23.569854189884182,-46.71004467854865
340,340,341,Jardim Caxingui,36,São Paulo,12,Butantã,180.08,POINT (-46.7205909696434 -23.57912904307653),-23.57912904307653,-46.7205909696434
341,341,342,Jardim Bonfiglioli,36,São Paulo,12,Butantã,319.97,POINT (-46.73699523078938 -23.57975024010095),-23.579750240100946,-46.73699523078938
342,342,343,Melhoramentos,4,Caieiras,100,Caieiras,2875.06,POINT (-46.68603376387438 -23.39265231344245),-23.39265231344245,-46.68603376387438
343,343,344,Caieiras,4,Caieiras,100,Caieiras,1990.04,POINT (-46.72782072886178 -23.37657122064827),-23.376571220648266,-46.72782072886178
344,344,345,Serpa,4,Caieiras,100,Caieiras,691.49,POINT (-46.75523828495211 -23.34262305641277),-23.342623056412773,-46.755238284952114
345,345,346,Santa Inês,4,Caieiras,100,Caieiras,4080.68,POINT (-46.79199346693136 -23.37049809723448),-23.37049809723448,-46.79199346693136
346,346,347,Cajamar,5,Cajamar,101,Cajamar,4855.8,POINT (-46.84652966663275 -23.3765578152356),-23.3765578152356,-46.846529666632755
347,347,348,Jordanésia,5,Cajamar,101,Cajamar,8307.85,POINT (-46.8865874618405 -23.33660424171773),-23.33660424171773,-46.8865874618405
348,348,349,Cristais,13,Franco da Rocha,109,Franco da Rocha,4251.83,POINT (-46.80228048139028 -23.30483444057759),-23.304834440577586,-46.802280481390284
349,349,350,Baltazar Fidélis,13,Franco da Rocha,109,Franco da Rocha,2505.16,POINT (-46.75499404931237 -23.31518037922121),-23.31518037922121,-46.754994049312366
350,350,351,Franco da Rocha,13,Franco da Rocha,109,Franco da Rocha,1417.58,POINT (-46.70637104012771 -23.31510687328948),-23.31510687328948,-46.706371040127706
351,351,352,Parque do Juqueri,13,Franco da Rocha,109,Franco da Rocha,2551.34,POINT (-46.6970244623769 -23.3460569257676),-23.346056925767602,-46.6970244623769
352,352,353,Palmares,13,Franco da Rocha,109,Franco da Rocha,2721.22,POINT (-46.66659805423666 -23.29879537804353),-23.298795378043533,-46.66659805423666
353,353,354,Sete Voltas,12,Francisco Morato,108,Francisco Morato,560.42,POINT (-46.76913273426972 -23.26880158272777),-23.26880158272777,-46.76913273426972
354,354,355,Afonso Moreno,12,Francisco Morato,108,Francisco Morato,744.81,POINT (-46.75078103154893 -23.28622137617443),-23.28622137617443,-46.75078103154893
355,355,356,Francisco Morato,12,Francisco Morato,108,Francisco Morato,1857.33,POINT (-46.72734732404972 -23.27775866895337),-23.27775866895337,-46.727347324049724
356,356,357,Cascatas,12,Francisco Morato,108,Francisco Morato,1758.38,POINT (-46.69294479078386 -23.26543572321534),-23.26543572321534,-46.69294479078386
357,357,358,Mairiporã,21,Mairiporã,117,Mairiporã,4886.1,POINT (-46.56798572588666 -23.3291416481327),-23.3291416481327,-46.56798572588666
358,358,359,Paiva Castro,21,Mairiporã,117,Mairiporã,6751.3,POINT (-46.63027683961004 -23.37715810564017),-23.377158105640174,-46.63027683961004
359,359,360,Colinas,21,Mairiporã,117,Mairiporã,5553.1,POINT (-46.61831320719259 -23.28770233180025),-23.28770233180025,-46.61831320719259
360,360,361,Pirucaia,21,Mairiporã,117,Mairiporã,14953.5,POINT (-46.50622611020675 -23.2971121681814),-23.297112168181403,-46.50622611020675
361,361,362,Guarulhos,15,Guarulhos,111,Guarulhos,164.41,POINT (-46.53335448267557 -23.4662324715485),-23.466232471548505,-46.53335448267557
362,362,363,Macedo,15,Guarulhos,111,Guarulhos,382.09,POINT (-46.52077973546129 -23.46027873830805),-23.460278738308048,-46.52077973546129
363,363,364,Cumbica,15,Guarulhos,111,Guarulhos,689.34,POINT (-46.47521537119828 -23.46762895434954),-23.467628954349536,-46.47521537119828
364,364,365,Várzea do Palácio,15,Guarulhos,111,Guarulhos,646.76,POINT (-46.50548220081203 -23.47068119607276),-23.47068119607276,-46.50548220081203
365,365,366,Ponte Grande,15,Guarulhos,111,Guarulhos,874.87,POINT (-46.54401198134564 -23.49064159221339),-23.490641592213393,-46.54401198134564
366,366,367,Gopouva,15,Guarulhos,111,Guarulhos,202.39,POINT (-46.54226473013784 -23.47509076099197),-23.475090760991968,-46.542264730137845
367,367,368,Vila São Rafael,15,Guarulhos,111,Guarulhos,401.04,POINT (-46.55707642413319 -23.46925182596783),-23.469251825967827,-46.557076424133186
368,368,369,Vila Rosália,15,Guarulhos,111,Guarulhos,434.65,POINT (-46.5567775586891 -23.44913193352079),-23.449131933520786,-46.5567775586891
369,369,370,André Luiz,15,Guarulhos,111,Guarulhos,579.59,POINT (-46.54070943388078 -23.44896431207706),-23.448964312077063,-46.54070943388078
370,370,371,Jardim Santa Clara,15,Guarulhos,111,Guarulhos,462.74,POINT (-46.52470690217445 -23.43867956849377),-23.43867956849377,-46.52470690217445
371,371,372,Parque CECAP,15,Guarulhos,111,Guarulhos,471.79,POINT (-46.50407339207278 -23.45012535026752),-23.45012535026752,-46.50407339207278
372,372,373,Taboão,15,Guarulhos,111,Guarulhos,529.11,POINT (-46.50223768563431 -23.42962534372845),-23.429625343728446,-46.502237685634306
373,373,374,Aeroporto,15,Guarulhos,111,Guarulhos,1324.93,POINT (-46.4735222029094 -23.43304956847621),-23.43304956847621,-46.4735222029094
374,374,375,Jardim Presidente Dutra,15,Guarulhos,111,Guarulhos,892.25,POINT (-46.44744092956744 -23.43512397217467),-23.435123972174665,-46.44744092956744
375,375,376,Baquirivu,15,Guarulhos,111,Guarulhos,1046.37,POINT (-46.39759203524731 -23.41442147936783),-23.414421479367828,-46.397592035247314
376,376,377,Água Chata,15,Guarulhos,111,Guarulhos,2422.5,POINT (-46.40004674406715 -23.44789929900072),-23.44789929900072,-46.40004674406715
377,377,378,Pimentas,15,Guarulhos,111,Guarulhos,1685.56,POINT (-46.4437731887748 -23.46073895369359),-23.46073895369359,-46.4437731887748
378,378,379,Cabuçu,15,Guarulhos,111,Guarulhos,752.36,POINT (-46.55164687008929 -23.42676008581383),-23.42676008581383,-46.55164687008929
379,379,380,Invernada,15,Guarulhos,111,Guarulhos,2194.83,POINT (-46.5071808582671 -23.40372468532075),-23.403724685320753,-46.5071808582671
380,380,381,Morro dos Macacos,15,Guarulhos,111,Guarulhos,3533.19,POINT (-46.50849985265296 -23.37656815017113),-23.376568150171128,-46.50849985265296
381,381,382,Chácaras Bananal,15,Guarulhos,111,Guarulhos,1815.89,POINT (-46.4607621788525 -23.3969298644028),-23.396929864402797,-46.4607621788525
382,382,383,Estrada de Nazaré Paulista,15,Guarulhos,111,Guarulhos,1215.48,POINT (-46.42727200557201 -23.40441903094043),-23.404419030940428,-46.42727200557201
383,383,384,Água Azul,15,Guarulhos,111,Guarulhos,3389.29,POINT (-46.41272065562057 -23.37126823517504),-23.371268235175037,-46.412720655620575
384,384,385,Vasconcelândia,15,Guarulhos,111,Guarulhos,5829.8,POINT (-46.38246764695484 -23.32632720805613),-23.32632720805613,-46.382467646954844
385,385,386,Arujazinho,1,Arujá,97,Arujá,4190.39,POINT (-46.33606439950414 -23.36433762860794),-23.36433762860794,-46.33606439950414
386,386,387,Arujá,1,Arujá,97,Arujá,3193.71,POINT (-46.32158041055015 -23.39549454207185),-23.39549454207185,-46.321580410550155
387,387,388,Fazenda Velha,1,Arujá,97,Arujá,2249.46,POINT (-46.28289777474185 -23.41233663292656),-23.41233663292656,-46.28289777474185
388,388,389,Santa Isabel,30,Santa Isabel,126,Santa Isabel,3989.66,POINT (-46.20476769608864 -23.3290949366146),-23.3290949366146,-46.204767696088645
389,389,390,Jaguari,30,Santa Isabel,126,Santa Isabel,32425.2,POINT (-46.24671918656446 -23.28388949120287),-23.28388949120287,-46.246719186564455
390,390,391,Ferraz de Vasconcelos,11,Ferraz de Vasconcelos,107,Ferraz de Vasconcelos,991.01,POINT (-46.36712704817482 -23.55608777923897),-23.55608777923897,-46.36712704817482
391,391,392,Paiol Velho,11,Ferraz de Vasconcelos,107,Ferraz de Vasconcelos,1027.08,POINT (-46.37600754495772 -23.59107419857641),-23.591074198576408,-46.376007544957716
392,392,393,Santos Dumont,11,Ferraz de Vasconcelos,107,Ferraz de Vasconcelos,945.21,POINT (-46.37808229952997 -23.53336492771511),-23.533364927715105,-46.37808229952997
393,393,394,Jardim São José,26,Poá,122,Poá,407.85,POINT (-46.34819685024176 -23.55476553965872),-23.554765539658717,-46.348196850241756
394,394,395,Poá,26,Poá,122,Poá,1322.41,POINT (-46.34602187519074 -23.52287756612032),-23.522877566120318,-46.34602187519074
395,395,396,Itaquaquecetuba,18,Itaquaquecetuba,114,Itaquaquecetuba,1132.92,POINT (-46.34990758511286 -23.49355612558011),-23.493556125580106,-46.34990758511286
396,396,397,Quinta da Boa Vista,18,Itaquaquecetuba,114,Itaquaquecetuba,1419.81,POINT (-46.34822441781749 -23.46825451204945),-23.46825451204945,-46.34822441781749
397,397,398,Bonsucesso,18,Itaquaquecetuba,114,Itaquaquecetuba,3075.76,POINT (-46.34875664433888 -23.44335781952703),-23.443357819527034,-46.348756644338884
398,398,399,Pinheirinho,18,Itaquaquecetuba,114,Itaquaquecetuba,2650.99,POINT (-46.30133837285818 -23.46473299320795),-23.46473299320795,-46.30133837285818
399,399,400,Miguel Badra,37,Suzano,132,Suzano,3270.75,POINT (-46.2954209182783 -23.51267420154646),-23.51267420154646,-46.295420918278296
400,400,401,Suzano,37,Suzano,132,Suzano,3452.13,POINT (-46.30990008282958 -23.56112207179617),-23.561122071796174,-46.30990008282958
401,401,402,Guaió,37,Suzano,132,Suzano,8721.28,POINT (-46.29726810054028 -23.6591230892),-23.659123089200005,-46.29726810054028
402,402,403,Ouro Fino,37,Suzano,132,Suzano,5222.79,POINT (-46.34131193149753 -23.61428746153311),-23.614287461533113,-46.34131193149753
403,403,404,Mogi das Cruzes,23,Mogi das Cruzes,119,Mogi das Cruzes,1358.15,POINT (-46.18872358924156 -23.53984121477784),-23.539841214777837,-46.18872358924156
404,404,405,Estudantes,23,Mogi das Cruzes,119,Mogi das Cruzes,995.8,POINT (-46.1976403794264 -23.51246927559609),-23.51246927559609,-46.1976403794264
405,405,406,Vila Oliveira,23,Mogi das Cruzes,119,Mogi das Cruzes,2914.74,POINT (-46.16499942477736 -23.55836395471925),-23.558363954719248,-46.164999424777356
406,406,407,Brás Cubas,23,Mogi das Cruzes,119,Mogi das Cruzes,2147.95,POINT (-46.2187534862809 -23.55228008552604),-23.552280085526036,-46.218753486280896
407,407,408,Jundiapeba,23,Mogi das Cruzes,119,Mogi das Cruzes,2374.68,POINT (-46.2531285000163 -23.56208745785658),-23.562087457856585,-46.253128500016295
408,408,409,Jardim Graziella,23,Mogi das Cruzes,119,Mogi das Cruzes,3985.96,POINT (-46.25340696883119 -23.48859061958464),-23.488590619584638,-46.253406968831186
409,409,410,Itapeti,23,Mogi das Cruzes,119,Mogi das Cruzes,15936.9,POINT (-46.18942353792465 -23.43593348096239),-23.43593348096239,-46.189423537924654
410,410,411,Sabaúna,23,Mogi das Cruzes,119,Mogi das Cruzes,4422.81,POINT (-46.09694680017628 -23.48467681549254),-23.484676815492538,-46.096946800176276
411,411,412,César de Souza,23,Mogi das Cruzes,119,Mogi das Cruzes,2932.91,POINT (-46.13662611902139 -23.52089313732724),-23.52089313732724,-46.136626119021386
412,412,413,Taiaçupeba,23,Mogi das Cruzes,119,Mogi das Cruzes,34359.29,POINT (-46.1865859396093 -23.66107711907302),-23.66107711907302,-46.1865859396093
413,413,414,Biritiba-Mirim,3,Biritiba-Mirim,99,Biritiba-Mirim,31812.79,POINT (-46.02108558906605 -23.62405982076787),-23.624059820767865,-46.02108558906605
414,414,415,Salesópolis,29,Salesópolis,125,Salesópolis,42596.88,POINT (-45.84236113766918 -23.58010168539523),-23.58010168539523,-45.84236113766918
415,415,416,Guararema,14,Guararema,110,Guararema,27143.95,POINT (-46.0583495494341 -23.42746671725759),-23.42746671725759,-46.0583495494341
416,416,417,Santa Paula,34,São Caetano do Sul,130,São Caetano do Sul,294.73,POINT (-46.5656637293992 -23.6223468234048),-23.622346823404804,-46.565663729399205
417,417,418,Vila Gerti,34,São Caetano do Sul,130,São Caetano do Sul,380.18,POINT (-46.55598621952232 -23.63210258676579),-23.632102586765793,-46.555986219522325
418,418,419,Estrada das Lágrimas,34,São Caetano do Sul,130,São Caetano do Sul,360.05,POINT (-46.57261940335541 -23.63987855268686),-23.639878552686863,-46.57261940335541
419,419,420,Santo Antônio,34,São Caetano do Sul,130,São Caetano do Sul,133.88,POINT (-46.57870266447506 -23.6226570233315),-23.6226570233315,-46.57870266447506
420,420,421,São Caetano do Sul,34,São Caetano do Sul,130,São Caetano do Sul,367.7,POINT (-46.5647659033896 -23.61044952881452),-23.61044952881452,-46.5647659033896
421,421,422,Santo André,32,Santo André,128,Santo André,795.2,POINT (-46.52864028429288 -23.65672973356072),-23.656729733560724,-46.52864028429288
422,422,423,Vila Gilda,32,Santo André,128,Santo André,291.6,POINT (-46.54543887420485 -23.67505227554621),-23.67505227554621,-46.54543887420485
423,423,424,Valparaíso,32,Santo André,128,Santo André,246.83,POINT (-46.54659708982658 -23.65951142033727),-23.65951142033727,-46.54659708982658
424,424,425,Sacadura Cabral,32,Santo André,128,Santo André,179.89,POINT (-46.55694480406892 -23.65225632738421),-23.652256327384208,-46.55694480406892
425,425,426,Campestre,32,Santo André,128,Santo André,287.09,POINT (-46.54595692231644 -23.63888674374561),-23.63888674374561,-46.545956922316435
426,426,427,Utinga,32,Santo André,128,Santo André,566.15,POINT (-46.53500821229444 -23.6232589912625),-23.6232589912625,-46.535008212294436
427,427,428,Vila Lucinda,32,Santo André,128,Santo André,457.81,POINT (-46.51571680903756 -23.62938908851305),-23.62938908851305,-46.51571680903756
428,428,429,Parque Oratório,32,Santo André,128,Santo André,578.55,POINT (-46.49403715534337 -23.63666866759439),-23.636668667594385,-46.49403715534337
429,429,430,Parque das Nações,32,Santo André,128,Santo André,527.79,POINT (-46.50993134821998 -23.65059369129188),-23.65059369129188,-46.50993134821998
430,430,431,Jardim do Estádio,32,Santo André,128,Santo André,1142.33,POINT (-46.49874791377682 -23.67703639242013),-23.67703639242013,-46.498747913776825
431,431,432,Carijós,32,Santo André,128,Santo André,914.11,POINT (-46.52417329441339 -23.68792222793783),-23.687922227937825,-46.524173294413394
432,432,433,Parque do Pedroso,32,Santo André,128,Santo André,3164.82,POINT (-46.4896970838448 -23.734844367236),-23.734844367236,-46.489697083844796
433,433,434,Paranapiacaba,32,Santo André,128,Santo André,8465.27,POINT (-46.36760391368878 -23.77488710297253),-23.77488710297253,-46.36760391368878
434,434,435,Capuava,22,Mauá,118,Mauá,1957.14,POINT (-46.47693453048628 -23.67678812180923),-23.67678812180923,-46.476934530486275
435,435,436,Mauá,22,Mauá,118,Mauá,1131.35,POINT (-46.45342180418294 -23.68103087456098),-23.68103087456098,-46.45342180418294
436,436,437,Jardim Zaíra,22,Mauá,118,Mauá,1240.23,POINT (-46.44448623424078 -23.65198884046432),-23.651988840464316,-46.44448623424078
437,437,438,Barão de Mauá,22,Mauá,118,Mauá,604.52,POINT (-46.42525756630693 -23.67159394094693),-23.67159394094693,-46.42525756630693
438,438,439,Estrada do Carneiro,22,Mauá,118,Mauá,1268.48,POINT (-46.40402354909976 -23.64721007791421),-23.647210077914213,-46.40402354909976
439,439,440,Ribeirão Pires,27,Ribeirão Pires,123,Ribeirão Pires,5256.82,POINT (-46.43028762639791 -23.72315211952928),-23.72315211952928,-46.430287626397906
440,440,441,Jardim Santa Luzia,27,Ribeirão Pires,123,Ribeirão Pires,2519.74,POINT (-46.38453151182061 -23.66370474147322),-23.663704741473218,-46.38453151182061
441,441,442,Ouro Fino Paulista,27,Ribeirão Pires,123,Ribeirão Pires,2156.26,POINT (-46.35603554994825 -23.69025135658361),-23.69025135658361,-46.35603554994825
442,442,443,Parque Sete Pontes,28,Rio Grande da Serra,124,Rio Grande da Serra,1886.11,POINT (-46.36390961050566 -23.72489456586093),-23.72489456586093,-46.36390961050566
443,443,444,Rio Grande da Serra,28,Rio Grande da Serra,124,Rio Grande da Serra,1756.13,POINT (-46.39564816391983 -23.75159317850789),-23.75159317850789,-46.39564816391983
444,444,445,Planalto,33,São Bernardo do Campo,129,São Bernardo do Campo,1109.34,POINT (-46.57366742960394 -23.70134306636545),-23.701343066365446,-46.57366742960394
445,445,446,Paulicéia,33,São Bernardo do Campo,129,São Bernardo do Campo,805.47,POINT (-46.59075146586368 -23.66206693076889),-23.66206693076889,-46.590751465863676
446,446,447,Rudge Ramos,33,São Bernardo do Campo,129,São Bernardo do Campo,470.61,POINT (-46.56825974123236 -23.65938651624465),-23.65938651624465,-46.56825974123236
447,447,448,Baeta Neves,33,São Bernardo do Campo,129,São Bernardo do Campo,535.87,POINT (-46.55381184020689 -23.68445656223917),-23.684456562239166,-46.55381184020689
448,448,449,São Bernardo do Campo,33,São Bernardo do Campo,129,São Bernardo do Campo,742.96,POINT (-46.5499583749276 -23.70690330094585),-23.70690330094585,-46.5499583749276
449,449,450,Montanhão,33,São Bernardo do Campo,129,São Bernardo do Campo,1054.93,POINT (-46.53032208951036 -23.72333983880545),-23.72333983880545,-46.530322089510356
450,450,451,Demarchi,33,São Bernardo do Campo,129,São Bernardo do Campo,1059.42,POINT (-46.56155866914735 -23.73651900798667),-23.73651900798667,-46.561558669147345
451,451,452,Riacho Grande,33,São Bernardo do Campo,129,São Bernardo do Campo,3065.46,POINT (-46.54572670610148 -23.7622587194074),-23.762258719407395,-46.545726706101476
452,452,453,Caminho do Mar,33,São Bernardo do Campo,129,São Bernardo do Campo,28151.71,POINT (-46.54052514187437 -23.84966674210539),-23.849666742105388,-46.54052514187437
453,453,454,Reservatório Billings,33,São Bernardo do Campo,129,São Bernardo do Campo,4043.04,POINT (-46.60954003874017 -23.75347215717972),-23.75347215717972,-46.60954003874017
454,454,455,Diadema,8,Diadema,104,Diadema,493.35,POINT (-46.62186462754899 -23.68621797305633),-23.686217973056326,-46.62186462754899
455,455,456,Jardim das Nações,8,Diadema,104,Diadema,591.18,POINT (-46.6120365923378 -23.67237489367088),-23.672374893670877,-46.6120365923378
456,456,457,Piraporinha,8,Diadema,104,Diadema,763.86,POINT (-46.59255368095876 -23.69127950986635),-23.69127950986635,-46.59255368095876
457,457,458,Vila Conceição,8,Diadema,104,Diadema,371.2,POINT (-46.61246086265307 -23.69980244274435),-23.699802442744346,-46.612460862653066
458,458,459,Eldorado,8,Diadema,104,Diadema,866.88,POINT (-46.62037928830054 -23.72445893190192),-23.72445893190192,-46.62037928830054
459,459,460,Taboão da Serra,38,Taboão da Serra,133,Taboão da Serra,526.97,POINT (-46.76593811720367 -23.60810047741196),-23.608100477411963,-46.765938117203675
460,460,461,Jardim Irapuã,38,Taboão da Serra,133,Taboão da Serra,406.71,POINT (-46.7800066648466 -23.61780166555494),-23.617801665554943,-46.7800066648466
461,461,462,Parque Pinheiros,38,Taboão da Serra,133,Taboão da Serra,723.48,POINT (-46.79539092396234 -23.62245003281367),-23.622450032813674,-46.795390923962344
462,462,463,Parque Industrial,38,Taboão da Serra,133,Taboão da Serra,386.21,POINT (-46.80276894049509 -23.63629508583313),-23.636295085833133,-46.80276894049509
463,463,464,Santo Eduardo,9,Embu das Artes,105,Embu das Artes,318.72,POINT (-46.80103322969089 -23.65310561844312),-23.65310561844312,-46.801033229690894
464,464,465,São Marcos,9,Embu das Artes,105,Embu das Artes,1868.03,POINT (-46.82078387952892 -23.66413074591018),-23.66413074591018,-46.820783879528925
465,465,466,Embu das Artes,9,Embu das Artes,105,Embu das Artes,1469.34,POINT (-46.83867493741066 -23.64424548743559),-23.644245487435594,-46.83867493741066
466,466,467,Ressaca,9,Embu das Artes,105,Embu das Artes,3398.73,POINT (-46.87816788813559 -23.64700840761392),-23.64700840761392,-46.87816788813559
467,467,468,Itapecerica da Serra,16,Itapecerica da Serra,112,Itapecerica da Serra,7478.56,POINT (-46.82898240145266 -23.72626668158021),-23.72626668158021,-46.828982401452656
468,468,469,Jardim Petrópolis,16,Itapecerica da Serra,112,Itapecerica da Serra,4132.43,POINT (-46.87582067180846 -23.76744326258393),-23.767443262583928,-46.87582067180846
469,469,470,Embu-Mirim,16,Itapecerica da Serra,112,Itapecerica da Serra,3509.86,POINT (-46.90157054316978 -23.72467002130325),-23.724670021303254,-46.90157054316978
470,470,471,São Lourenço da Serra,35,São Lourenço da Serra,131,São Lourenço da Serra,18674.34,POINT (-46.93613806220156 -23.8523574341445),-23.852357434144498,-46.936138062201564
471,471,472,Embu-Guaçu,10,Embu-Guaçu,106,Embu-Guaçu,7756.92,POINT (-46.83036729339955 -23.81748164462437),-23.817481644624372,-46.83036729339955
472,472,473,Cipó,10,Embu-Guaçu,106,Embu-Guaçu,2226.59,POINT (-46.78821680715571 -23.86156694044389),-23.861566940443893,-46.788216807155706
473,473,474,Santa Rita,10,Embu-Guaçu,106,Embu-Guaçu,5614.14,POINT (-46.84717204694864 -23.90198107686637),-23.90198107686637,-46.84717204694864
474,474,475,Juquitiba,20,Juquitiba,116,Juquitiba,52333.22,POINT (-47.02439515950267 -23.95510432406595),-23.955104324065953,-47.02439515950267
475,475,476,Barueri,2,Barueri,98,Barueri,1469.12,POINT (-46.88153352471608 -23.4979446489759),-23.497944648975896,-46.88153352471608
476,476,477,Aphaville,2,Barueri,98,Barueri,1201.4,POINT (-46.83514081724138 -23.48954810027514),-23.48954810027514,-46.83514081724138
477,477,478,Tamboré,2,Barueri,98,Barueri,890.13,POINT (-46.83520693220935 -23.50489345436396),-23.504893454363962,-46.835206932209346
478,478,479,Antônio João,2,Barueri,98,Barueri,593.61,POINT (-46.87337585003517 -23.52018021096952),-23.520180210969524,-46.873375850035174
479,479,480,Vutopoca,2,Barueri,98,Barueri,473.35,POINT (-46.87272897369731 -23.54035235025297),-23.540352350252967,-46.872728973697306
480,480,481,Jardim Silveira,2,Barueri,98,Barueri,312.03,POINT (-46.88799283758649 -23.53394695995056),-23.53394695995056,-46.887992837586495
481,481,482,Jardim Belval,2,Barueri,98,Barueri,350.02,POINT (-46.90175007280744 -23.51476738280718),-23.514767382807182,-46.90175007280744
482,482,483,Morada dos Lagos,2,Barueri,98,Barueri,1293.93,POINT (-46.93337085121161 -23.49884412395827),-23.498844123958268,-46.933370851211606
483,483,484,Cidade Ariston,6,Carapicuíba,102,Carapicuíba,790.35,POINT (-46.8481332228269 -23.53398111585701),-23.533981115857014,-46.8481332228269
484,484,485,Carapicuíba,6,Carapicuíba,102,Carapicuíba,776.67,POINT (-46.8292667686919 -23.53004627388021),-23.530046273880206,-46.8292667686919
485,485,486,Jardim Planalto,6,Carapicuíba,102,Carapicuíba,422.4,POINT (-46.83402073855785 -23.55878816875881),-23.558788168758806,-46.83402073855785
486,486,487,Aldeia de Carapicuíba,6,Carapicuíba,102,Carapicuíba,572.62,POINT (-46.82988307758809 -23.57276671210738),-23.572766712107377,-46.82988307758809
487,487,488,Estrada do Jacarandá,6,Carapicuíba,102,Carapicuíba,900.41,POINT (-46.85784481519114 -23.5624646368328),-23.5624646368328,-46.85784481519114
488,488,489,Osasco,24,Osasco,120,Osasco,188.93,POINT (-46.78107191337337 -23.53019120106139),-23.530191201061392,-46.78107191337337
489,489,490,Vila Yara,24,Osasco,120,Osasco,243.57,POINT (-46.7666168240802 -23.54035842218267),-23.540358422182674,-46.7666168240802
490,490,491,Bussocaba City,24,Osasco,120,Osasco,469.51,POINT (-46.77405897973593 -23.56031570843382),-23.56031570843382,-46.774058979735926
491,491,492,Nova Granada,24,Osasco,120,Osasco,546.33,POINT (-46.78633220056241 -23.54141173477571),-23.54141173477571,-46.78633220056241
492,492,493,Recanto das Rosas,24,Osasco,120,Osasco,389.45,POINT (-46.81047014577357 -23.58597108209857),-23.585971082098567,-46.81047014577357
493,493,494,Jardim Novo Osasco,24,Osasco,120,Osasco,354.18,POINT (-46.79372229608234 -23.5703642946788),-23.570364294678804,-46.79372229608234
494,494,495,Jardim Veloso,24,Osasco,120,Osasco,678.57,POINT (-46.80465723634271 -23.55667643696196),-23.556676436961965,-46.80465723634271
495,495,496,Quitaúna,24,Osasco,120,Osasco,552.51,POINT (-46.80839862519053 -23.53742734573624),-23.537427345736237,-46.808398625190534
496,496,497,Jardim Piratininga,24,Osasco,120,Osasco,350.75,POINT (-46.80203946691349 -23.51889331342855),-23.51889331342855,-46.80203946691349
497,497,498,Presidente Altino,24,Osasco,120,Osasco,247.56,POINT (-46.77040882179796 -23.52549145464013),-23.525491454640132,-46.770408821797965
498,498,499,Munhoz Junior,24,Osasco,120,Osasco,722.7,POINT (-46.79509103839193 -23.50266289909105),-23.502662899091053,-46.79509103839193
499,499,500,Rochdale,24,Osasco,120,Osasco,366.25,POINT (-46.77662205530258 -23.5072176406691),-23.507217640669104,-46.77662205530258
500,500,501,Mutinga,24,Osasco,120,Osasco,442.02,POINT (-46.762849580177 -23.51043840119537),-23.51043840119537,-46.762849580177004
501,501,502,Três Montanhas,24,Osasco,120,Osasco,957.92,POINT (-46.78474686102123 -23.47951969213509),-23.479519692135092,-46.784746861021226
502,502,503,Ribeirão Itaqui,19,Jandira,115,Jandira,356.79,POINT (-46.91509151126674 -23.52196149826155),-23.52196149826155,-46.915091511266745
503,503,504,Jandira,19,Jandira,115,Jandira,680.44,POINT (-46.90362828866659 -23.54021505426115),-23.54021505426115,-46.90362828866659
504,504,505,Ribeirão das Pombas,19,Jandira,115,Jandira,712.09,POINT (-46.8876327748053 -23.55875134733903),-23.558751347339026,-46.8876327748053
505,505,506,Granja Viana,7,Cotia,103,Cotia,1639.63,POINT (-46.83310555854264 -23.60100136706665),-23.60100136706665,-46.83310555854264
506,506,507,Fernando Nobre,7,Cotia,103,Cotia,1976.97,POINT (-46.87162266528485 -23.5946128475262),-23.594612847526196,-46.87162266528485
507,507,508,Cotia,7,Cotia,103,Cotia,8045.11,POINT (-46.9358172914426 -23.61609722094397),-23.61609722094397,-46.9358172914426
508,508,509,Capueira,7,Cotia,103,Cotia,2229.93,POINT (-46.91691772408857 -23.69339699185348),-23.69339699185348,-46.91691772408857
509,509,510,Caucaia,7,Cotia,103,Cotia,10265.92,POINT (-46.96789214354486 -23.72655175532413),-23.72655175532413,-46.96789214354486
510,510,511,Caucaia do Alto,7,Cotia,103,Cotia,8316.36,POINT (-47.03222736474065 -23.69724422568429),-23.69724422568429,-47.03222736474065
511,511,512,Vargem Grande Paulista,39,Vargem Grande Paulista,134,Vargem Grande Paulista,4257.94,POINT (-47.01446852291838 -23.62079173429467),-23.620791734294674,-47.014468522918385
512,512,513,Quatro Encruzilhadas,17,Itapevi,113,Itapevi,2101.43,POINT (-46.99188326392017 -23.57654703781628),-23.57654703781628,-46.99188326392017
513,513,514,Itapevi,17,Itapevi,113,Itapevi,1070.03,POINT (-46.92657701739518 -23.5455861559907),-23.5455861559907,-46.926577017395175
514,514,515,Amador Bueno,17,Itapevi,113,Itapevi,5113.23,POINT (-46.96591406695831 -23.5414012579793),-23.541401257979302,-46.96591406695831
515,515,516,Santana de Parnaíba,31,Santana de Parnaíba,127,Santana de Parnaíba,18034.76,POINT (-46.91657129070399 -23.44936596697109),-23.449365966971094,-46.91657129070399
516,516,517,Pirapora do Bom Jesus,25,Pirapora do Bom Jesus,121,Pirapora do Bom Jesus,10876.89,POINT (-46.98466100449128 -23.37828400254144),-23.37828400254144,-46.98466100449128
